[
{
    "stadiumName": "Saint Jean",
    "capacity": null,
    "price": null,
    "imageURL": "https://cdn.shopify.com/s/files/1/0550/4237/5908/products/633wm_1.png?v=1660617305",
    "longitude": 6.205889,
    "latitude":  46.2058894,
    "status": "public",
    "isFree": true,
    "isIndoor": false,
    "hasLighting": false,
    "hasShower":false,
    "Region":"Geneva",
    "numberOfCourts":1,
    "numberOfHoops":2
},
{
    "stadiumName": "Nant-Cayla",
    "capacity": null,
    "price": null,
    "imageURL": "https://www.shutterstock.com/image-photo/illuminated-basketball-playground-red-pavement-600nw-1221779821.jpg",
    "longitude":  6.120152,
    "latitude": 46.204392,
    "status": "public",
    "isFree": true,
    "isIndoor": false,
    "hasLighting": true,
    "hasShower":false,
    "Region":"Geneva",
    "numberOfCourts":1,
    "numberOfHoops":2
},
{
    "stadiumName": "Chemain de Tivoli",
    "capacity": null,
    "price": null,
    "imageURL": "https://www.sportshub.com.sg/sites/default/files/2022-09/Play%20Ground.jpg",
    "longitude":6.125310,
    "latitude":46.195225,
    "status": "public",
    "isFree": true,
    "isIndoor": false,
    "hasLighting": true,
    "hasShower":false,
    "Region":"Geneva",
    "numberOfCourts":1,
    "numberOfHoops":2
},
{
    "stadiumName": "Asphalte",
    "capacity": null,
    "price": null,
    "imageURL": "https://www.geneve.ch/sites/default/files/2022-06/asphalte-ville-geneve-cover-01%281%29.jpg",
    "longitude":  6.124312,
    "latitude":  46.201210,
    "status": "public",
    "isFree": true,
    "isIndoor": true,
    "hasLighting": true,
    "hasShower":false,
    "Region":"Geneva",
    "numberOfCourts":1,
    "numberOfHoops":2
},
{
    "stadiumName": "Franchises",
    "capacity": null,
    "price": null,
    "imageURL": "https://st2.depositphotos.com/2601429/9447/i/450/depositphotos_94474168-stock-photo-basketball-board-on-the-sky.jpg",
    "longitude":   6.119236,
    "latitude":  46.214832,
    "status": "public",
    "isFree": true,
    "isIndoor": false,
    "hasLighting": true,
    "hasShower":false,
    "Region":"Geneva",
    "numberOfCourts":1,
    "numberOfHoops":2
},
{
    "stadiumName": "Lancy-Florimont",
    "capacity": null,
    "price": null,
    "imageURL": "https://engermancontracting.com/wp/wp-content/uploads/2022/02/US_So_CA_P1195217.jpg?gid=6",
    "longitude":  6.113680,
    "latitude":  46.194499,
    "status": "public",
    "isFree": true,
    "isIndoor": false,
    "hasLighting": true,
    "hasShower":false,
    "Region":"Geneva",
    "numberOfCourts":1,
    "numberOfHoops":2
},
{
    "stadiumName": "Rue de Lyon",
    "capacity": null,
    "price": null,
    "imageURL": "https://www.courtsoftheworld.com/upload/courts/49281/0/COTW-sportanlage-tufi-1654876528.webp",
    "longitude":    6.130507,
    "latitude":  46.209544,
    "status": "public",
    "isFree": true,
    "isIndoor": false,
    "hasLighting": true,
    "hasShower":false,
    "Region":"Geneva",
    "numberOfCourts":2,
    "numberOfHoops":4
},
{
    "stadiumName": "La Grande Boissière",
    "capacity": 12,
    "price": 100,
    "imageURL": "https://5.imimg.com/data5/XU/XQ/MY-2305614/indoor-basket-ball-court-500x500.jpg",
    "longitude":   6.172200,
    "latitude":  46.197877,
    "status": "private",
    "isFree": false,
    "isIndoor": true,
    "hasLighting": true,
    "hasShower":true,
    "Region":"Geneva",
    "numberOfCourts":1,
    "numberOfHoops":2
},
{
    "stadiumName": "Malagnou court",
    "capacity": 12,
    "price": 120,
    "imageURL": "https://www.genevaparks.org/wp-content/uploads/2017/04/IMG_6162.jpg",
    "longitude":    6.169795,
    "latitude":  46.192078,
    "status": "private",
    "isFree": false,
    "isIndoor": true,
    "hasLighting": true,
    "hasShower":true,
    "Region":"Geneva",
    "numberOfCourts":2,
    "numberOfHoops":4
},
{
    "stadiumName": "Pré-Picot",
    "capacity": 12,
    "price": 90,
    "imageURL": "https://www.realsport.ch/sites/default/files/styles/image_header_small/public/2022-05/Header_23.jpg?h=4521fff0&itok=pEACS7-F",
    "longitude":   6.175717,
    "latitude":  46.204303,
    "status": "private",
    "isFree": false,
    "isIndoor": true,
    "hasLighting": true,
    "hasShower":true,
    "Region":"Geneva",
    "numberOfCourts":2,
    "numberOfHoops":4
},
{
    "stadiumName": "Contamines",
    "capacity": 12,
    "price": 110,
    "imageURL": "https://www.realsport.ch/sites/default/files/styles/image_header_small/public/2021-10/VEYRIER%20-%20Salle%20de%20sport%20IMG-20180825-WA0002.jpg?h=08b866d1&itok=R_ZgS04U",
    "longitude":  6.159313,
    "latitude":   46.196310,
    "status": "private",
    "isFree": false,
    "isIndoor": true,
    "hasLighting": true,
    "hasShower":true,
    "Region":"Geneva",
    "numberOfCourts":1,
    "numberOfHoops":6
},
{
    "stadiumName": "Balexert",
    "capacity": 12,
    "price": 90,
    "imageURL": "https://www.home-designing.com/wp-content/uploads/2014/01/14-Basketball-court.jpeg",
    "longitude":   6.115957,
    "latitude":  46.219006, 
    "status": "private",
    "isFree": false,
    "isIndoor": true,
    "hasLighting": true,
    "hasShower":true,
    "Region":"Geneva",
    "numberOfCourts":2,
    "numberOfHoops":4
},



{
    "stadiumName": "Vidy",
    "capacity": null,
    "price": null,
    "imageURL": "https://img.redbull.com/images/c_limit,w_1500,h_1000,f_auto,q_auto/redbullcom/2021/8/9/hy3qqqsm7fgqlucpbism/half-court-vidy",
    "longitude": 6.600410,
    "latitude": 46.514442,
    "status": "Public",
    "isFree": true,
    "isIndoor": false,
    "hasLighting": true,
    "hasShower":false,
    "Region":"Lausanne",
    "numberOfCourts":2,
    "numberOfHoops":5
},
{
    "stadiumName": "Crochy",
    "capacity": null,
    "price": null,
    "imageURL": "https://d2rzw8waxoxhv2.cloudfront.net/facilities/xlarge/118e56e292138385d8a5/1582730448759-175-61.jpeg",
    "longitude": 6.569049,
    "latitude":46.532489,
    "status": "Public",
    "isFree": true,
    "isIndoor": false,
    "hasLighting": true,
    "hasShower":false,
    "Region":"Lausanne",
    "numberOfCourts":2,
    "numberOfHoops":4
},
{
    "stadiumName": "Le Wegmann",
    "capacity": null,
    "price": null,
    "imageURL": "https://us.123rf.com/450wm/dzmitrock/dzmitrock1806/dzmitrock180600123/103918543-terrain-de-basket-dans-la-cour-ext%C3%A9rieure-par-une-belle-journ%C3%A9e-d-%C3%A9t%C3%A9.jpg",
    "longitude":   6.621063,
    "latitude": 46.514156,  
    "status": "Public",
    "isFree": true,
    "isIndoor": false,
    "hasLighting": true,
    "hasShower":false,
    "Region":"Lausanne",
    "numberOfCourts":1,
    "numberOfHoops":2
}
]



